[{"lat":"41.37244870457324","lng":"2.1506699369152824","name":"Barcelona - BSM Rius i Taulet-Fonts Montjuïc-Fira","slug":"bsm-rius-taulet-fonts-montjuic-fira","address":"Avinguda Maria Cristina 16","goalProgress":100,"active":true,"category_slug":"van","form_slug":null},{"lat":"41.56087113987438","lng":"2.038115415602516","name":"Terrassa - L'Eina Cooperativa (grup tancat)","slug":"mnactec-copy","address":"Carrer de Pamplona 21","goalProgress":100,"active":true,"category_slug":"car_charger","form_slug":"first-form"},{"lat":"41.559415630346365","lng":"2.0975994157303783","name":"Sabadell - FGC Sabadell Nord","slug":"sabadell-fgc-sabadell-nord","address":"Avinguda de Josep Tarradellas 7","goalProgress":100,"active":true,"category_slug":"car_charger","form_slug":"bike_charger"},{"lat":"41.96259354851955","lng":"2.815382160220452","name":"Girona - Consell Comarcal del Gironès","slug":"som-mobilitat-girona-copy","address":"Carrer Riera de Mus 1A","goalProgress":100,"active":true,"category_slug":"van","form_slug":"first-form"},{"lat":"41.67351","lng":"2.40072","name":"Sant Antoni de Vilamajor - Can Perpunter","slug":"sant-antoni-vilamajor-can-perpunter","address":"Plaça del Montseny 5","goalProgress":100,"active":false,"category_slug":"car","form_slug":"first-form"},{"lat":"41.471375330060035","lng":"2.08538468253227","name":"Sant Cugat - Plaça de la Vila","slug":"sant-cugat-placa-de-la-vila","address":"Parking Plaça De La Vila, Plaça de la Vila, 08172 Sant Cugat del Vallès, Barcelona","goalProgress":100,"active":false,"category_slug":"car","form_slug":"first-form"},{"lat":"41.34607","lng":"2.03727","name":"Sant Boi de Llobregat - Mercat Vell","slug":"sant-boi-de-llobregat-copy","address":"Carrer del Nord","goalProgress":100,"active":false,"category_slug":"bike_charger","form_slug":null},{"lat":"41.349257063808345","lng":"2.0405916824203927","name":"Sant Boi de Llobregat - Fotolinera Estació FGC","slug":"sant-boi-de-llobregat-fotolinera-estacio-fgc","address":"Josep Torras i Bages 08830 Sant Boi de Llobregat","goalProgress":100,"active":false,"category_slug":"bike_charger","form_slug":"bike_charger"},{"lat":"41.55715645803622","lng":"2.157678635404629","name":"Som Mobilitat - Polinyà","slug":"som-mobilitat-polinya","address":"Avinguda de Sentmenat","goalProgress":100,"active":false,"category_slug":"car_charger","form_slug":null},{"lat":"41.54465373145367","lng":"2.1057879945711795","name":"Sabadell - Plaça del Gas","slug":"sabadell-placa-del-gas","address":"Carrer de l'Horta Novella 33","goalProgress":100,"active":true,"category_slug":"car","form_slug":"first-form"},{"lat":"41.32101910913884","lng":"1.6624421726141956","name":"Santa Margarida i els Monjos","slug":"santa-margarida-i-els-monjos","address":"Per decidir","goalProgress":100,"active":false,"category_slug":"van","form_slug":"first-form"},{"lat":"42.00939428395695","lng":"2.0284620368994055","name":"Prats de Lluçanès - Aparcament municipal","slug":"prats-de-llucanes","address":"Carrer de la Reforma 35","goalProgress":100,"active":false,"category_slug":"car","form_slug":null},{"lat":"41.525763","lng":"2.393130","name":"Cabrera de Mar","slug":"cabrera-de-mar","address":"Per decidir","goalProgress":100,"active":false,"category_slug":"car","form_slug":"bike_charger"},{"lat":"41.927433","lng":"2.246305","name":"Vic - Consell comarcal Osona","slug":"vic-consell-comarcal-osona","address":"Carrer de l'Historiador Ramon d'Abadal i de Vinyals, 5, 3ª Planta, 08500 Vic, Barcelona","goalProgress":100,"active":false,"category_slug":"car","form_slug":null},{"lat":"41.920505","lng":"2.256407","name":"Vic - Club natació VIC ETB","slug":"vic-club-natacio-vic-etb","address":"Carrer de Josep Maria Pallàs, 1, 08500 Vic, Barcelona","goalProgress":100,"active":false,"category_slug":"van","form_slug":"bike_charger"},{"lat":"41.934735","lng":"2.254444","name":"Vic - Ateneu espai de cultura La central","slug":"vic-ateneu-espai-de-cultura-la-central","address":"Plaça Vicenç Albert Ballester","goalProgress":100,"active":false,"category_slug":"car_charger","form_slug":"first-form"},{"lat":"41.967376","lng":"2.621882","name":"Cellera de Ter","slug":"cellera-de-ter","address":"Ajuntament La Cellera De Ter Av. Ntra. Sra. de Montserrat, 18, 20, 17165 La Cellera de Ter, Girona","goalProgress":100,"active":false,"category_slug":"bike_charger","form_slug":"first-form"},{"lat":"41.92943796330706","lng":"2.267663519295594","name":"Vic - Aparcament Serveis Municipals","slug":"ajuntament-de-vic-2","address":"Carrer de la Indústria 71","goalProgress":100,"active":true,"category_slug":"bike_charger","form_slug":"bike_charger"},{"lat":"41.928704820372865","lng":"2.2606908063371183","name":"Vic - Aparcament l'Atlàntida","slug":"ajuntament-de-vic","address":"Carrer de Francesc Maria Masferrer 2","goalProgress":100,"active":true,"category_slug":"car_charger","form_slug":"first-form"},{"lat":"41.611234","lng":"2.543899","name":"Arenys de Munt - Rial Bellsolell","slug":"arenysdemunt-rial-bell-solell","address":"Rial Bellsolell","goalProgress":100,"active":false,"category_slug":"car_charger","form_slug":"first-form"},{"lat":"41.453784","lng":"2.252435","name":"Badalona Sant Bru (Can Mercader)","slug":"badalona-santbru-canmercader","address":"c/ Sant Bru nº 60 (Can Mercader) ","goalProgress":16,"active":false,"category_slug":"van","form_slug":"first-form"},{"lat":"41.45463486407017","lng":"2.247131540770898","name":"Badalona - Engestur Manuel Valls","slug":"badalona-engestur-manuel-valls","address":"Carrer del Mestre Antoni Nicolau (Barri Dalt la Vila de Badalona, amb extensió a La Morera, La Morera i Bufalà).","goalProgress":56,"active":false,"category_slug":"van","form_slug":null},{"lat":"41.56545322154713","lng":"2.0072510863645943","name":"Terrassa - mNACTEC","slug":"mnactec","address":"Rambla d'Ègara 280","goalProgress":20,"active":true,"category_slug":"car_charger","form_slug":"bike_charger"},{"lat":"41.6096874","lng":"2.1327677","name":"Sentmenat","slug":"sentmenat","address":"Sentmenat","goalProgress":64,"active":false,"category_slug":"bike_charger","form_slug":"first-form"},{"lat":"41.375768","lng":"2.134846","name":"Plaça de Sants","slug":"placa-de-sants","address":"Plaça de Sants, Barcelona","goalProgress":63,"active":false,"category_slug":"bike_charger","form_slug":"first-form"},{"lat":"41.373910","lng":"2.169983","name":"Vilà i Vilà","slug":"vila-i-vila","address":"Carrer de Vilà i Vilà, 50","goalProgress":31,"active":false,"category_slug":"van","form_slug":"first-form"},{"lat":"41.374611","lng":"2.165859","name":"Poeta Cabanyes","slug":"poeta-cabanyes","address":"Carrer del Poeta Cabanyes, 4","goalProgress":41,"active":false,"category_slug":"car_charger","form_slug":"first-form"},{"lat":"41.372930","lng":"2.157096","name":"Gapark","slug":"gapark","address":"Carrer Mare de Déu del Remei, 31-37","goalProgress":54,"active":false,"category_slug":"car_charger","form_slug":"bike_charger"},{"lat":"41.371829","lng":"2.143033","name":"Abanto","slug":"abanto","address":"Carrer de Sant Pere d'Abanto, 14","goalProgress":12,"active":false,"category_slug":"bike_charger","form_slug":"bike_charger"},{"lat":"41.372277","lng":"2.128570","name":"Viatgers","slug":"viatgers","address":"Carrer de Carreras i Candi, 65","goalProgress":97,"active":false,"category_slug":"bike_charger","form_slug":null},{"lat":"41.362124","lng":"2.132527","name":"Ciutat de la Justícia","slug":"ciutat-de-la-justicia","address":"Avinguda del Carrilet, 2","goalProgress":20,"active":false,"category_slug":"van","form_slug":null},{"lat":"41.358372","lng":"2.140250","name":"Passeig de la Zona Franca","slug":"passeig-zona-franca","address":"Passeig de la Zona Franca","goalProgress":55,"active":false,"category_slug":"van","form_slug":"bike_charger"},{"lat":"41.364058","lng":"2.137042","name":"Plaça Cerdà","slug":"placa-cerda","address":"Carrer de la Mineria, 12, 08038","goalProgress":51,"active":false,"category_slug":"car","form_slug":"first-form"},{"lat":"41.376491","lng":"2.151382","name":"Gran Via, 400","slug":"gran-via-400","address":"Gran Via, 400","goalProgress":54,"active":false,"category_slug":"bike_charger","form_slug":null},{"lat":"41.408277145535976","lng":"2.15133042901628","name":"Barcelona - BSM Torrent de l'Olla","slug":"bsm-torrent-lolla","address":"Carrer del Torrent de l'Olla 221","goalProgress":8,"active":true,"category_slug":"bike_charger","form_slug":"first-form"},{"lat":"41.614795","lng":"2.664376","name":"Jovara, 277","slug":"jovara-277-calella","address":"Jovara, 277","goalProgress":83,"active":false,"category_slug":"bike_charger","form_slug":"bike_charger"},{"lat":"42.245941","lng":"3.111530","name":"Zona Comercial Alberes","slug":"zona-comercial-alberes","address":"Zona Comercial Alberes","goalProgress":25,"active":false,"category_slug":"car","form_slug":"bike_charger"},{"lat":"41.666438","lng":"2.263350","name":"Carrer Sant Genis, 8","slug":"carrer-sant-genis-8","address":"Carrer Sant Genis, 8","goalProgress":86,"active":false,"category_slug":"bike_charger","form_slug":"first-form"},{"lat":"41.425274","lng":"2.143437","name":"Pg. Vall d´Hebron, 138-176","slug":"pg-vall-dhebron-138-176","address":"Pg. Vall d´Hebron, 138-176","goalProgress":96,"active":false,"category_slug":"bike_charger","form_slug":null},{"lat":"41.41745280697549","lng":"2.184100814275824","name":"Barcelona - Parktrinxant","slug":"parktrinxant","address":"Carrer del Freser 103","goalProgress":94,"active":true,"category_slug":"car_charger","form_slug":"first-form"},{"lat":"41.372954","lng":"2.136719","name":"Bicicargo - Lleialtat Santsenca","slug":"32213","address":"Bicicargo - Lleialtat Santsenca","goalProgress":99,"active":true,"category_slug":"van","form_slug":null},{"lat":"41.688867","lng":"2.164548","name":"Som Mobilitat - Sant Feliu de Codines","slug":"som-mobilitat-sant-feliu-codines","address":"Plaça 1 d'Octubre","goalProgress":18,"active":false,"category_slug":"car_charger","form_slug":null},{"lat":"41.426419","lng":"2.184267","name":"Concepció Arenal","slug":"concepcio-arenal","address":"Carrer concepció Arenal 156","goalProgress":20,"active":true,"category_slug":"van","form_slug":"bike_charger"},{"lat":"41.549935","lng":"2.444126","name":"Triangle dels Molins","slug":"triangle-dels-molins","address":"Triangle dels Molins","goalProgress":12,"active":false,"category_slug":"van","form_slug":"bike_charger"},{"lat":"41.405547","lng":"2.142676","name":"BSM-Mitre/Putxet","slug":"bsm-mitre-putxet","address":"Ronda del General Mitre, 203, ","goalProgress":99,"active":false,"category_slug":"bike_charger","form_slug":"bike_charger"},{"lat":"41.404217","lng":"2.197448","name":"BSM-Rambla Poblenou/Sancho de Ávila","slug":"bsm-rambla-poblenou-sancho-avila","address":"Rambla del Poblenou, 130","goalProgress":20,"active":true,"category_slug":"car_charger","form_slug":"first-form"},{"lat":"41.40582973999812","lng":"2.162657675311832","name":"Barcelona - BSM Plaça Joanic","slug":"bsm-placa-joanic","address":"Carrer de l´Escorial 1 (Plaça Joanic 1)","goalProgress":60,"active":true,"category_slug":"car_charger","form_slug":"first-form"},{"lat":"41.394262","lng":"2.182575","name":"BSM-Estació del Nord","slug":"bsm-estacio-nord","address":"C/ d'Alí Bei, 88","goalProgress":70,"active":true,"category_slug":"van","form_slug":"first-form"},{"lat":"41.402379","lng":"2.204859","name":"BSM-Bilbao/Llull","slug":"bsm-bilbao-llull","address":"C/ Bilbao, 24","goalProgress":71,"active":true,"category_slug":"car","form_slug":"bike_charger"},{"lat":"41.403465331310024","lng":"2.192257698698398","name":"Barcelona - BSM Badajoz Glòries","slug":"bsm-badajoz-glories","address":"Carrer de Badajoz 168","goalProgress":45,"active":true,"category_slug":"bike_charger","form_slug":null},{"lat":"42.370590","lng":"1.777491","name":"Som Mobilitat - Bellver de Cerdanya","slug":"mobilitat-bellver-cerdanya","address":"Bellver de Cerdanya","goalProgress":39,"active":false,"category_slug":"car","form_slug":"first-form"},{"lat":"41.801017","lng":"2.217275","name":"Som Mobilitat - Centelles","slug":"som-mobilitat-centelles","address":"Carretera de Sant Feliu de Codines","goalProgress":73,"active":false,"category_slug":"car","form_slug":null},{"lat":"41.441360","lng":"2.225765","name":"Quevedo (La Salut)","slug":"quevedo-la-salut","address":"C/ Quevedo s/n","goalProgress":12,"active":false,"category_slug":"car_charger","form_slug":"first-form"},{"lat":"42.433484","lng":"1.931674","name":"Som Mobilitat - Puigcerdà","slug":"som-mobilitat-puigcerda","address":"Carrer Josep Lluis Ortega Monasterio","goalProgress":5,"active":false,"category_slug":"van","form_slug":null},{"lat":"42.463180","lng":"1.978954","name":"Som Mobilitat - Llívia","slug":"som-mobilitat-llivia","address":"Avinguda de Catalunya, 54","goalProgress":18,"active":false,"category_slug":"bike_charger","form_slug":"first-form"},{"lat":"41.375754","lng":"1.717920","name":"Som Mobilitat - La Granada","slug":"som-mobilitat-la-granada","address":"Carrer de La Plana","goalProgress":87,"active":false,"category_slug":"car_charger","form_slug":null},{"lat":"41.449174","lng":"2.227780","name":"Av. Pau Picasso","slug":"av-pau-picasso","address":"Av. Pau Picasso","goalProgress":22,"active":false,"category_slug":"car_charger","form_slug":"first-form"},{"lat":"41.402839","lng":"2.162632","name":"Bailèn 225","slug":"bailen-225","address":"Carrer de Bailèn, 225,","goalProgress":59,"active":false,"category_slug":"van","form_slug":"bike_charger"},{"lat":"41.439823","lng":"2.215731","name":"Ronda Sant Antoni (Llefià)","slug":"ronda-sant-antoni-llefia","address":"Ronda Sant Antoni de Llefià","goalProgress":84,"active":false,"category_slug":"van","form_slug":null},{"lat":"41.436332","lng":"2.157817","name":"Parc de la Unitat - Barcelona","slug":"parc-unitat-barcelona","address":"C/ Lloret de Mar, 81","goalProgress":84,"active":true,"category_slug":"bike_charger","form_slug":"bike_charger"},{"lat":"41.430757","lng":"2.160764","name":"Plaça d'Eivissa - Barcelona","slug":"placa-deivissa-barcelona","address":"Plaça d'Eivissa, 10","goalProgress":63,"active":false,"category_slug":"car","form_slug":"first-form"},{"lat":"41.571636","lng":"2.527520","name":"Plaça de la Vila - Caldes d'Estrac","slug":"placa-vila-caldes-destrac","address":"Plaça de la vila s/n","goalProgress":64,"active":true,"category_slug":"van","form_slug":"first-form"},{"lat":"41.609887","lng":"2.084739","name":"Ajuntament Castellar del Vallès","slug":"ajuntament-castellar-valles","address":"Carrer Portugal 2","goalProgress":81,"active":true,"category_slug":"van","form_slug":"first-form"},{"lat":"41.567285","lng":"2.521862","name":"Pàrquing Fotovoltaic Caldetes","slug":"parquing-fotovoltaic-caldetes","address":"Pàrquing Fotovoltaic Caldetes","goalProgress":29,"active":true,"category_slug":"bike_charger","form_slug":null},{"lat":"41.547063","lng":"2.105589","name":"Saba - Mercat Central Sabadell","slug":"saba-mercat-central-sabadell","address":"Carrer Colom 2","goalProgress":52,"active":true,"category_slug":"car","form_slug":"bike_charger"},{"lat":"41.373508","lng":"2.121716","name":"Rafael de Campalans - L'Hospitalet de Llobregat","slug":"rafael-de-campalans-lhospitalet-de-llobregat","address":"Carrer Rafael de Campalans, 29","goalProgress":83,"active":false,"category_slug":"bike_charger","form_slug":"bike_charger"},{"lat":"41.599680","lng":"1.918876","name":"Som Mobilitat - Vacarisses","slug":"som-mobilitat-vacarisses","address":"Carrer del Vent, 1","goalProgress":66,"active":false,"category_slug":"car","form_slug":null},{"lat":"42.043106","lng":"2.109404","name":"Som Mobilitat - Perafita","slug":"som-mobilitat-perafita","address":"A decidir","goalProgress":78,"active":false,"category_slug":"car","form_slug":"bike_charger"},{"lat":"42.183023","lng":"2.484386","name":"Zoe - Firalet 1","slug":"olot-firalet","address":"Passeig Bisbe Guillamet, 7 ","goalProgress":23,"active":true,"category_slug":"car_charger","form_slug":"first-form"},{"lat":"42.181249","lng":"2.490988","name":"Zoe - Estació 1","slug":"olot-fluvia-1","address":"C/ Bisbe Lorenzana, 18 (Olot)","goalProgress":7,"active":true,"category_slug":"van","form_slug":"bike_charger"},{"lat":"42.181054989487016","lng":"2.487799440299859","name":"Olot - Aparcament Mercat","slug":"olot-fluvia-2","address":"Carrer de Camil Mulleras 17","goalProgress":97,"active":true,"category_slug":"car_charger","form_slug":null},{"lat":"41.850552","lng":"2.227260","name":"Tona","slug":"tona","address":"A decidir","goalProgress":54,"active":false,"category_slug":"van","form_slug":"bike_charger"},{"lat":"41.842311","lng":"2.251579","name":"Sant Miquel de Balenyà","slug":"sant-miquel-balenya","address":"Carrer Ignasi Vilarrubia, 3","goalProgress":96,"active":false,"category_slug":"bike_charger","form_slug":"bike_charger"},{"lat":"41.557262","lng":"1.954308","name":"Viladecavalls","slug":"viladecavalls","address":"Camí Can Boada de les Parentes, 3","goalProgress":61,"active":false,"category_slug":"car","form_slug":"bike_charger"},{"lat":"41.393681","lng":"2.143122","name":"Pau Casals","slug":"pau-casals","address":"Av. Pau Casals, s/n","goalProgress":95,"active":true,"category_slug":"car_charger","form_slug":null},{"lat":"41.390757","lng":"2.151977","name":"Hospital Clínic","slug":"hospital-clinic","address":"Pl. Doctor Ferrer i Cajigal, s/n","goalProgress":62,"active":true,"category_slug":"car","form_slug":null},{"lat":"41.388248","lng":"2.167511","name":"Rambla Catalunya","slug":"rambla-catalunya","address":"Rbla. Catalunya, s/n","goalProgress":41,"active":true,"category_slug":"bike_charger","form_slug":null},{"lat":"41.392410","lng":"2.169952","name":"Diputació","slug":"diputacio","address":"Diputació s/n","goalProgress":36,"active":true,"category_slug":"van","form_slug":"bike_charger"},{"lat":"41.375495","lng":"2.169631","name":"Paral·lel","slug":"parallel","address":"c/ de l'Abat Safont, 2","goalProgress":43,"active":true,"category_slug":"van","form_slug":"first-form"},{"lat":"41.379466","lng":"2.162311","name":"Urgell","slug":"urgell","address":"c/ del Comte Urgell, 12","goalProgress":41,"active":true,"category_slug":"bike_charger","form_slug":null},{"lat":"41.374601","lng":"2.142727","name":"Vilardell","slug":"vilardell","address":"c/ Vilardell, 20","goalProgress":77,"active":true,"category_slug":"car","form_slug":"first-form"},{"lat":"41.390258","lng":"2.143330","name":"Tarradellas I","slug":"tarradellas-i","address":"Av. Josep Tarradellas, 139","goalProgress":58,"active":true,"category_slug":"bike_charger","form_slug":"bike_charger"},{"lat":"41.391043","lng":"2.147734","name":"Londres","slug":"londres","address":"c/ Londres, 56","goalProgress":52,"active":true,"category_slug":"car_charger","form_slug":"bike_charger"},{"lat":"41.382236","lng":"2.168168","name":"Plaça dels Àngels","slug":"placa-dels-angels","address":"C. dels Àngels, 1","goalProgress":69,"active":true,"category_slug":"van","form_slug":"first-form"},{"lat":"41.379765","lng":"2.189146","name":"Barceloneta","slug":"barceloneta","address":"C. del Baluard, 27","goalProgress":15,"active":true,"category_slug":"van","form_slug":"bike_charger"},{"lat":"41.383207","lng":"2.150541","name":"València – Calàbria","slug":"valencia-calabria","address":"c/ València, 77","goalProgress":55,"active":true,"category_slug":"car","form_slug":"bike_charger"},{"lat":"41.385696","lng":"2.177143","name":"Barcelona - Francesc Cambó","slug":"barcelona-francesc-cambo","address":"Av. de Francesc Cambó, 10","goalProgress":89,"active":true,"category_slug":"van","form_slug":"first-form"},{"lat":"41.383882","lng":"2.142797","name":"Tarradellas III","slug":"tarradellas-iii","address":"Av. Josep Tarradellas, 46","goalProgress":27,"active":true,"category_slug":"car_charger","form_slug":"bike_charger"},{"lat":"41.385947","lng":"2.170495","name":"Plaça Catalunya","slug":"placa-catalunya","address":"Pl. Catalunya, s/n","goalProgress":29,"active":true,"category_slug":"car","form_slug":null},{"lat":"41.392684","lng":"2.164514","name":"Gracia II","slug":"gracia-ii","address":"Pg. de Gràcia, s/n (Gran Via/Aragó)","goalProgress":44,"active":true,"category_slug":"car","form_slug":"first-form"},{"lat":"41.397335","lng":"2.158986","name":"Gracia I","slug":"gracia-i","address":"Pg. de Gràcia, s/n (Jardinets)","goalProgress":78,"active":true,"category_slug":"bike_charger","form_slug":null},{"lat":"41.386303","lng":"2.126644","name":"Carles III","slug":"carles-iii","address":"Sabino Arana 22-24 i Gran Via Carles\nIII, 85 bis","goalProgress":46,"active":true,"category_slug":"car","form_slug":null},{"lat":"41.537918","lng":"2.444672","name":"Mataró - Plaça Sta Anna","slug":"placa-sta-anna","address":"Pl. de Santa Anna, s/n","goalProgress":63,"active":true,"category_slug":"van","form_slug":"first-form"},{"lat":"41.395507","lng":"2.148210","name":"Travessera,43","slug":"travessera43","address":"Travessera de Gràcia, 43","goalProgress":69,"active":true,"category_slug":"van","form_slug":"bike_charger"},{"lat":"41.394364","lng":"2.146400","name":"Travessera, 17-21","slug":"travessera-17-21","address":"Travessera de Gràcia, 17","goalProgress":39,"active":true,"category_slug":"van","form_slug":null},{"lat":"41.395704","lng":"2.163659","name":"Pau Claris","slug":"pau-claris","address":"Pau Claris, 174","goalProgress":70,"active":true,"category_slug":"car","form_slug":"first-form"},{"lat":"41.44941060392462","lng":"2.2454604828052402","name":"Badalona - Pompeu Fabra","slug":"pompeu-fabra","address":"Avinguda de Martí Pujol 147-177","goalProgress":96,"active":true,"category_slug":"bike_charger","form_slug":null},{"lat":"41.474943088631875","lng":"1.98355655310027","name":"Castellbisbal - Els Costals","slug":"som-mobilitat-castellbisbal","address":"Avinguda de Pau Casals 27","goalProgress":38,"active":true,"category_slug":"car","form_slug":null},{"lat":"41.3404153270738","lng":"2.037204056014717","name":"Sant Boi de Llobregat - Baldiri Aleu","slug":"sant-boi-de-llobregat","address":"Carrer Baldiri Aleu 1","goalProgress":21,"active":false,"category_slug":"van","form_slug":"bike_charger"},{"lat":"41.426299","lng":"1.786761","name":"Som Mobilitat Sant Sadurní d'Anoia","slug":"som-mobilitat-sant-sadurni-danoia","address":null,"goalProgress":42,"active":false,"category_slug":"car","form_slug":"first-form"},{"lat":"41.346678","lng":"1.698672","name":"Som Mobilitat Vilafranca","slug":"som-mobilitat-vilafranca","address":null,"goalProgress":28,"active":false,"category_slug":"bike_charger","form_slug":null},{"lat":"41.93088677066906","lng":"2.246258470096388","name":"Vic - Campus Universitat de Vic","slug":"som-mobilitat-vic","address":"Carrer d'en Perot Rocaguinarda 17","goalProgress":45,"active":true,"category_slug":"car_charger","form_slug":"bike_charger"},{"lat":"41.5637755","lng":"2.035164","name":"Terrassa Plaça","slug":"terrassa-placa","address":"Carrer de Navarra, 10","goalProgress":32,"active":true,"category_slug":"car","form_slug":"first-form"},{"lat":"41.567261","lng":"2.012856","name":"Terrassa - Sant Leopold","slug":"sant-leopold","address":"Carrer Sant leopold nº 33","goalProgress":42,"active":true,"category_slug":"car_charger","form_slug":"first-form"},{"lat":"41.549531","lng":"2.109291","name":"Som Mobilitat - Sabadell","slug":"som-mobilitat-sabadell","address":null,"goalProgress":28,"active":false,"category_slug":"car_charger","form_slug":"bike_charger"},{"lat":"41.485700999930074","lng":"2.03027420982112","name":"Rubí - Fotolinera Rubí Forma","slug":"fotolonera-rubi-forma","address":"Rambleta de Joan Miró s/n","goalProgress":36,"active":true,"category_slug":"van","form_slug":"bike_charger"},{"lat":"41.495611","lng":"2.359164","name":"Som Mobilitat - Premià","slug":"premia-de-mar","address":null,"goalProgress":95,"active":false,"category_slug":"car","form_slug":null},{"lat":"41.540197","lng":"2.454049","name":"Mataró - Can Fugarolas (grup tancat)","slug":"can-fugarolas","address":"Carrer Tolo, 8","goalProgress":74,"active":true,"category_slug":"car_charger","form_slug":null},{"lat":"41.544603","lng":"2.440813","name":"Espai Firal / Parc Central","slug":"espai-firal-parc-central","address":"Camí de la Geganta, 2","goalProgress":71,"active":false,"category_slug":"van","form_slug":null},{"lat":"41.538818279838054","lng":"2.442201241105523","name":"Plaça de les Tereses","slug":"placa-de-les-tereses","address":"Plaça de les Tereses","goalProgress":76,"active":false,"category_slug":"van","form_slug":null},{"lat":"41.541300074221205","lng":"2.4365512037024217","name":"Mataró - PUMSA Plaça Granollers","slug":"placa-granollers","address":"Camí de la Geganta 82","goalProgress":75,"active":true,"category_slug":"car","form_slug":"first-form"},{"lat":"41.52784624686366","lng":"2.435192261477897","name":"Mataró - Tecnocampus","slug":"tecnocampus-1","address":"Avinguda d'Ernest Lluch 32","goalProgress":64,"active":true,"category_slug":"car_charger","form_slug":"bike_charger"},{"lat":"41.97667473606894","lng":"2.816591849199207","name":"Girona - MIFAS","slug":"som-mobilitat-girona","address":"Carrer de la Creu 72","goalProgress":2,"active":true,"category_slug":"car_charger","form_slug":"bike_charger"},{"lat":"42.266837117019556","lng":"2.9583777306708923","name":"Figueres - SUNO (comunitat tancada)","slug":"som-mobilitat-figueres","address":"","goalProgress":70,"active":true,"category_slug":"car","form_slug":null},{"lat":"41.331551","lng":"1.921216","name":"Som Mobilitat - Begues","slug":"som-mobilitat-begues-2","address":null,"goalProgress":69,"active":false,"category_slug":"van","form_slug":"bike_charger"},{"lat":"42.026996","lng":"2.875279","name":"Som Mobilitat - Celrà","slug":"som-mobilitat-celra","address":null,"goalProgress":14,"active":false,"category_slug":"car","form_slug":null},{"lat":"41.301693","lng":"2.002616","name":"Som Mobilitat - Gavà","slug":"som-mobilitat-gava","address":null,"goalProgress":43,"active":false,"category_slug":"bike_charger","form_slug":null},{"lat":"41.541229","lng":"2.211079","name":"Som Mobilitat - Mollet del Vallès","slug":"som-mobilitat-mollet-del-valles","address":null,"goalProgress":79,"active":false,"category_slug":"car","form_slug":"first-form"},{"lat":"41.376309","lng":"2.087141","name":"Som Mobilitat - Esplugues de Llobregat","slug":"som-mobilitat-esplugues-de-llobregat","address":null,"goalProgress":48,"active":false,"category_slug":"car","form_slug":"bike_charger"},{"lat":"41.491058","lng":"2.146349","name":"Som Mobilitat - Cerdanyola del Vallès","slug":"som-mobilitat-cerdanyola-del-valles","address":"Plaça de l'Abat Oliba","goalProgress":53,"active":false,"category_slug":"bike_charger","form_slug":"bike_charger"},{"lat":"41.608362","lng":"2.295854","name":"Som Mobilitat - Granollers","slug":"som-mobilitat-granollers","address":null,"goalProgress":30,"active":false,"category_slug":"car","form_slug":"first-form"},{"lat":"41.596060","lng":"2.282196","name":"Som Mobilitat - Fagom","slug":"som-mobilitat-fagom","address":"Carrer de Lluís Companys, 66","goalProgress":95,"active":true,"category_slug":"car","form_slug":"bike_charger"},{"lat":"42.004737","lng":"2.284653","name":"Som Mobilitat - Manlleu","slug":"som-mobilitat-manlleu","address":null,"goalProgress":70,"active":false,"category_slug":"van","form_slug":"bike_charger"},{"lat":"40.70964592659219","lng":"0.5794811115201489","name":"Amposta - EPI-Gentis (comunitat tancada)","slug":"som-mobilitat-amposta","address":"","goalProgress":7,"active":true,"category_slug":"car","form_slug":null},{"lat":"41.505488","lng":"2.390499","name":"Som Mobilitat - Vilassar de Mar","slug":"som-mobilitat-vilassar-de-mar","address":null,"goalProgress":46,"active":false,"category_slug":"van","form_slug":"first-form"},{"lat":"41.785500","lng":"3.031758","name":"Som Mobilitat - Sant Feliu de Guixols","slug":"som-mobilitat-sant-feliu-de-guixols","address":null,"goalProgress":71,"active":false,"category_slug":"car_charger","form_slug":"first-form"},{"lat":"41.538544","lng":"1.870991","name":"Som Mobilitat - Esparraguera","slug":"som-mobilitat-esparraguera","address":null,"goalProgress":3,"active":false,"category_slug":"car_charger","form_slug":null},{"lat":"41.110162","lng":"1.148461","name":"Som Mobilitat - Vila-seca","slug":"som-mobilitat-vila-seca","address":null,"goalProgress":91,"active":false,"category_slug":"bike_charger","form_slug":"first-form"},{"lat":"41.916678","lng":"3.161175","name":"Som Mobilitat - Palafrugell","slug":"som-mobilitat-palafrugell","address":null,"goalProgress":42,"active":false,"category_slug":"car_charger","form_slug":"bike_charger"},{"lat":"41.481813","lng":"2.311634","name":"Som Mobilitat - El Masnou","slug":"som-mobilitat-el-masnou","address":null,"goalProgress":28,"active":false,"category_slug":"car","form_slug":"bike_charger"},{"lat":"41.544394","lng":"1.891666","name":"Som Mobilitat - Olesa de Montserrat","slug":"som-mobilitat-olesa-de-montserrat","address":null,"goalProgress":22,"active":false,"category_slug":"car_charger","form_slug":"bike_charger"},{"lat":"41.285375","lng":"1.250468","name":"Som Mobilitat - Valls","slug":"som-mobilitat-valls","address":null,"goalProgress":78,"active":false,"category_slug":"van","form_slug":"first-form"},{"lat":"41.189249","lng":"1.566769","name":"Som Mobilitat - Calafell","slug":"som-mobilitat-calafell","address":null,"goalProgress":98,"active":false,"category_slug":"car","form_slug":null},{"lat":"41.409603","lng":"2.020612","name":"Som Mobilitat - Molins de Rei","slug":"som-mobilitat-molins-de-rei","address":null,"goalProgress":21,"active":false,"category_slug":"bike_charger","form_slug":"bike_charger"},{"lat":"41.52959070977342","lng":"2.187164455622982","name":"Santa Perpètua de Mogoda - Granja Soldevila","slug":"som-mobilitat-santa-perpetua-de-mogoda","address":"Avinguda de l'Onze de Setembre","goalProgress":94,"active":true,"category_slug":"car_charger","form_slug":"bike_charger"},{"lat":"41.078370","lng":"1.139556","name":"Som Mobilitat - Salou","slug":"som-mobilitat-salou","address":null,"goalProgress":15,"active":false,"category_slug":"car_charger","form_slug":"bike_charger"},{"lat":"41.621118","lng":"2.682327","name":"Som Mobilitat - Pineda de Mar","slug":"som-mobilitat-pineda-de-mar","address":null,"goalProgress":72,"active":false,"category_slug":"car","form_slug":"bike_charger"},{"lat":"41.446083","lng":"1.974043","name":"Som Mobilitat - Sant Andreu de la Barca","slug":"som-mobilitat-sant-andreu-de-la-barca","address":null,"goalProgress":93,"active":false,"category_slug":"car_charger","form_slug":null},{"lat":"41.477975","lng":"1.922961","name":"Som Mobilitat - Martorell","slug":"som-mobilitat-martorell","address":null,"goalProgress":34,"active":false,"category_slug":"car_charger","form_slug":"first-form"},{"lat":"41.388359","lng":"2.011929","name":"Som Mobilitat - Sant Vicenç dels Horts","slug":"som-mobilitat-sant-vicenc-dels-horts","address":null,"goalProgress":66,"active":false,"category_slug":"car_charger","form_slug":null},{"lat":"41.238761","lng":"1.808814","name":"Som Mobilitat - Sitges","slug":"som-mobilitat-sitges","address":null,"goalProgress":59,"active":false,"category_slug":"bike_charger","form_slug":"bike_charger"},{"lat":"41.971737","lng":"2.792466","name":"Som Mobilitat - Salt","slug":"som-mobilitat-salt","address":null,"goalProgress":27,"active":false,"category_slug":"van","form_slug":"bike_charger"},{"lat":"41.260288","lng":"1.772647","name":"Som Mobilitat - Sant Pere de Ribes","slug":"som-mobilitat-sant-pere-de-ribes","address":null,"goalProgress":95,"active":false,"category_slug":"bike_charger","form_slug":"first-form"},{"lat":"41.068611","lng":"1.053787","name":"Som Mobilitat - Cambrils","slug":"som-mobilitat-cambrils","address":null,"goalProgress":51,"active":false,"category_slug":"car","form_slug":null},{"lat":"41.514176","lng":"2.119008","name":"Som Mobilitat - Barberà del Vallès","slug":"som-mobilitat-barbera-del-valles","address":null,"goalProgress":44,"active":false,"category_slug":"car_charger","form_slug":"bike_charger"},{"lat":"40.79504634735633","lng":"0.5243524230603831","name":"Tortosa - C.C. Baix Ebre (comunitat tancada)","slug":"som-mobilitat-tortosa","address":"Carrer Barcelona 152","goalProgress":52,"active":true,"category_slug":"van","form_slug":null},{"lat":"41.370379","lng":"2.059358","name":"Som Mobilitat - Sant Joan d'Espí","slug":"som-mobilitat-sant-joan-despi","address":null,"goalProgress":16,"active":false,"category_slug":"car_charger","form_slug":"bike_charger"},{"lat":"41.484286","lng":"2.187470","name":"Som Mobilitat - Montcada i Reixac","slug":"som-mobilitat-montcada-i-reixac","address":null,"goalProgress":48,"active":false,"category_slug":"car","form_slug":"first-form"},{"lat":"41.219185","lng":"1.535954","name":"Som Mobilitat - El Vendrell","slug":"som-mobilitat-el-vendrell","address":null,"goalProgress":96,"active":false,"category_slug":"car_charger","form_slug":"bike_charger"},{"lat":"41.422840","lng":"2.230375","name":"Som Mobilitat - Sant Adrià de Besòs","slug":"som-mobilitat-sant-adria-de-besos","address":null,"goalProgress":7,"active":false,"category_slug":"van","form_slug":null},{"lat":"41.701899","lng":"2.841057","name":"Som Mobilitat - Lloret de Mar","slug":"som-mobilitat-lloret-de-mar","address":null,"goalProgress":38,"active":false,"category_slug":"van","form_slug":"first-form"},{"lat":"41.498699","lng":"2.159172","name":"Som Mobilitat - Ripollet","slug":"som-mobilitat-ripollet","address":null,"goalProgress":6,"active":false,"category_slug":"car_charger","form_slug":"bike_charger"},{"lat":"41.668225","lng":"2.782775","name":"Som Mobilitat - Blanes","slug":"som-mobilitat-blanes","address":null,"goalProgress":69,"active":false,"category_slug":"van","form_slug":"bike_charger"},{"lat":"41.577768","lng":"1.629517","name":"Som Mobilitat - Igualada","slug":"som-mobilitat-igualada","address":null,"goalProgress":84,"active":false,"category_slug":"bike_charger","form_slug":null},{"lat":"41.381534","lng":"2.050320","name":"Som Mobilitat - Sant Feliu de Llobregat","slug":"som-mobilitat-sant-feliu-de-llobregat","address":null,"goalProgress":61,"active":false,"category_slug":"bike_charger","form_slug":"bike_charger"},{"lat":"41.329954","lng":"2.088568","name":"Som Mobilitat - El Prat de Llobregat","slug":"som-mobilitat-el-prat-de-llobregat","address":null,"goalProgress":19,"active":false,"category_slug":"car_charger","form_slug":"bike_charger"},{"lat":"41.277319","lng":"1.977647","name":"Som Mobilitat - Castelldefels","slug":"som-mobilitat-castelldefels","address":null,"goalProgress":73,"active":false,"category_slug":"car_charger","form_slug":"bike_charger"},{"lat":"41.314176","lng":"2.014267","name":"Som Mobilitat - Viladecans","slug":"som-mobilitat-viladecans","address":null,"goalProgress":19,"active":false,"category_slug":"bike_charger","form_slug":null},{"lat":"41.220526764998255","lng":"1.7230577834639147","name":"Vilanova i la Geltrú - Charlie Rivel","slug":"som-mobilitat-vilanova-i-la-geltru","address":"Carrer del Pare Garí 82","goalProgress":95,"active":true,"category_slug":"car","form_slug":"bike_charger"},{"lat":"41.727439111372696","lng":"1.830217255738444","name":"Manresa - Montepio","slug":"montepio-manresa","address":"Carrer Jacint Verdaguer 5","goalProgress":60,"active":true,"category_slug":"van","form_slug":null},{"lat":"41.359421","lng":"2.070810","name":"Som Mobilitat - Cornellà de Llobregat","slug":"som-mobilitat-cornella-de-llobregat","address":null,"goalProgress":59,"active":false,"category_slug":"van","form_slug":null},{"lat":"41.469893","lng":"2.070910","name":"Som Mobilitat - Sant Cugat del Vallès","slug":"som-mobilitat-sant-cugat-del-valles","address":"Carrer Pere Serra, 1-15 Edifici SC2 Sant Cugat del Vallès 08173","goalProgress":17,"active":false,"category_slug":"bike_charger","form_slug":null},{"lat":"41.160333","lng":"1.100333","name":"Som Mobilitat - Reus","slug":"som-mobilitat-reus","address":null,"goalProgress":40,"active":false,"category_slug":"van","form_slug":null},{"lat":"41.445561","lng":"2.207289","name":"Som Mobilitat - Santa Coloma de Gramanet","slug":"som-mobilitat-santa-coloma-de-gramanet","address":null,"goalProgress":12,"active":false,"category_slug":"car_charger","form_slug":"bike_charger"},{"lat":"41.111192","lng":"1.252191","name":"Som Mobilitat - Tarragona","slug":"som-mobilitat-tarragona","address":null,"goalProgress":49,"active":false,"category_slug":"bike_charger","form_slug":null},{"lat":"41.620608","lng":"0.632163","name":"Som Mobilitat - Lleida","slug":"som-mobilitat-lleida","address":null,"goalProgress":25,"active":false,"category_slug":"bike_charger","form_slug":"first-form"},{"lat":"41.364945","lng":"2.098112","name":"Som Mobilitat - L'Hospitalet de Llobregat","slug":"som-mobilitat-lhospitalet-de-llobregat","address":null,"goalProgress":20,"active":false,"category_slug":"van","form_slug":"first-form"},{"lat":"41.638876","lng":"2.403132","name":"Som Mobilitat - Llinars del Vallès","slug":"som-mobilitat-llinars-del-valles","address":null,"goalProgress":70,"active":false,"category_slug":"car_charger","form_slug":"first-form"},{"lat":"41.887525","lng":"2.875154","name":"Som Mobilitat - Cassà de la Selva","slug":"som-mobilitat-cassa-de-la-selva","address":null,"goalProgress":13,"active":false,"category_slug":"van","form_slug":"bike_charger"},{"lat":"41.505018","lng":"2.345798","name":"Som Mobilitat - Premià de Dalt","slug":"som-mobilitat-premia-de-dalt","address":null,"goalProgress":3,"active":false,"category_slug":"bike_charger","form_slug":null},{"lat":"42.113244","lng":"3.139644","name":"Som Mobilitat - L'Escala","slug":"som-mobilitat-lescala","address":null,"goalProgress":18,"active":false,"category_slug":"bike_charger","form_slug":"first-form"},{"lat":"41.588769","lng":"2.324850","name":"Som Mobilitat - La Roca del Vallès","slug":"som-mobilitat-la-roca-del-valles","address":null,"goalProgress":7,"active":false,"category_slug":"car","form_slug":"bike_charger"},{"lat":"41.819113","lng":"3.066814","name":"Som Mobilitat - Platja d'Aro","slug":"som-mobilitat-platja-daro","address":null,"goalProgress":70,"active":false,"category_slug":"car","form_slug":"bike_charger"},{"lat":"42.197268","lng":"2.192900","name":"Ripoll - Berenguer El Vell","slug":"som-mobilitat-ripoll","address":"Carrer Berenguer El Vell","goalProgress":68,"active":true,"category_slug":"bike_charger","form_slug":"first-form"},{"lat":"41.555894","lng":"2.497641","name":"Som Mobilitat - Sant Andreu de Llavaneres","slug":"som-mobilitat-sant-andreu-de-llavaneres","address":null,"goalProgress":80,"active":false,"category_slug":"car","form_slug":null},{"lat":"41.958058","lng":"3.041215","name":"Som Mobilitat - La Bisbal d'Empordà","slug":"som-mobilitat-la-bisbal-demporda","address":null,"goalProgress":8,"active":false,"category_slug":"car","form_slug":"bike_charger"},{"lat":"42.255828","lng":"3.072705","name":"Som Mobilitat - Castelló d'Empúries","slug":"som-mobilitat-castello-dempuries","address":null,"goalProgress":21,"active":false,"category_slug":"van","form_slug":null},{"lat":"41.742891","lng":"1.805021","name":"Som Mobilitat - Sant Joan de Vilatorrada","slug":"som-mobilitat-sant-joan-de-vilatorrada","address":null,"goalProgress":87,"active":false,"category_slug":"car","form_slug":"first-form"},{"lat":"41.847499","lng":"3.099166","name":"Som Mobilitat - Sant Antoni de Calonge","slug":"som-mobilitat-sant-antoni-de-calonge","address":null,"goalProgress":42,"active":false,"category_slug":"car_charger","form_slug":"first-form"},{"lat":"41.420797","lng":"1.996723","name":"Som Mobilitat - Pallejà","slug":"som-mobilitat-palleja","address":null,"goalProgress":51,"active":false,"category_slug":"car_charger","form_slug":"bike_charger"},{"lat":"40.719207","lng":"0.713732","name":"Som Mobilitat - Deltebre","slug":"som-mobilitat-deltebre","address":null,"goalProgress":88,"active":false,"category_slug":"car","form_slug":"first-form"},{"lat":"42.042015","lng":"3.130455","name":"Som Mobilitat - Torroella de Montgrí","slug":"som-mobilitat-torroella-de-montgri","address":null,"goalProgress":84,"active":false,"category_slug":"car","form_slug":null},{"lat":"41.086190","lng":"0.960649","name":"Som Mobilitat - Mont-roig del Camp","slug":"som-mobilitat-mont-roig-del-camp","address":null,"goalProgress":6,"active":false,"category_slug":"car","form_slug":null},{"lat":"41.469420","lng":"2.284936","name":"Som Mobilitat - Montgat","slug":"som-mobilitat-montgat","address":null,"goalProgress":27,"active":false,"category_slug":"car","form_slug":null},{"lat":"42.359923","lng":"1.459985","name":"Som Mobilitat - La Seu d'Urgell","slug":"som-mobilitat-la-seu-durgell","address":null,"goalProgress":38,"active":false,"category_slug":"bike_charger","form_slug":null},{"lat":"41.199904","lng":"1.627544","name":"Som Mobilitat - Cunit","slug":"som-mobilitat-cunit","address":null,"goalProgress":32,"active":false,"category_slug":"car_charger","form_slug":"first-form"},{"lat":"41.572867","lng":"1.641650","name":"Som Mobilitat - Vilanova del Camí","slug":"som-mobilitat-vilanova-del-cami","address":null,"goalProgress":58,"active":false,"category_slug":"car","form_slug":"first-form"},{"lat":"41.522039","lng":"1.905396","name":"Som Mobilitat - Abrera","slug":"som-mobilitat-abrera","address":null,"goalProgress":52,"active":false,"category_slug":"bike_charger","form_slug":"bike_charger"},{"lat":"41.864409","lng":"2.665234","name":"Som Mobilitat - Santa Coloma de Farners","slug":"som-mobilitat-santa-coloma-de-farners","address":null,"goalProgress":24,"active":false,"category_slug":"van","form_slug":null},{"lat":"41.510373","lng":"2.197358","name":"Som Mobilitat - La Llagosta","slug":"som-mobilitat-la-llagosta","address":null,"goalProgress":76,"active":false,"category_slug":"car_charger","form_slug":"bike_charger"},{"lat":"41.508866","lng":"2.115265","name":"Som Mobilitat - Badia del Vallès","slug":"som-mobilitat-badia-del-valles","address":null,"goalProgress":79,"active":false,"category_slug":"car","form_slug":"first-form"},{"lat":"42.048479","lng":"2.255171","name":"Som Mobilitat - Torelló","slug":"som-mobilitat-torello","address":"Carrer del Ter, 33","goalProgress":12,"active":true,"category_slug":"van","form_slug":"bike_charger"},{"lat":"41.590595","lng":"2.580268","name":"Som Mobilitat - Canet de Mar","slug":"som-mobilitat-canet-de-mar","address":null,"goalProgress":91,"active":false,"category_slug":"van","form_slug":"bike_charger"},{"lat":"41.419752","lng":"1.932502","name":"Som Mobilitat - Corbera de Llobregat","slug":"som-mobilitat-corbera-de-llobregat","address":null,"goalProgress":32,"active":false,"category_slug":"van","form_slug":"first-form"},{"lat":"41.628937","lng":"0.894198","name":"Som Mobilitat - Mollerussa","slug":"som-mobilitat-mollerussa","address":null,"goalProgress":82,"active":false,"category_slug":"car","form_slug":null},{"lat":"41.585439","lng":"2.180727","name":"Som Mobilitat - Palau-solità i Plegamans","slug":"som-mobilitat-palau-solita-i-plegamans","address":null,"goalProgress":81,"active":false,"category_slug":"bike_charger","form_slug":"first-form"},{"lat":"41.204778","lng":"1.673472","name":"Som Mobilitat - Cubelles","slug":"som-mobilitat-cubelles","address":null,"goalProgress":74,"active":false,"category_slug":"car","form_slug":null},{"lat":"41.386378","lng":"1.931414","name":"Som Mobilitat - Vallirana","slug":"som-mobilitat-vallirana","address":null,"goalProgress":92,"active":false,"category_slug":"car_charger","form_slug":"bike_charger"},{"lat":"40.618289","lng":"0.590687","name":"Som Mobilitat - Sant Carles de la Ràpita","slug":"som-mobilitat-sant-carles-de-la-rapita","address":null,"goalProgress":53,"active":false,"category_slug":"bike_charger","form_slug":"first-form"},{"lat":"41.608734","lng":"2.239411","name":"Som Mobilitat - Lliçà d'Amunt","slug":"som-mobilitat-llica-damunt","address":null,"goalProgress":14,"active":false,"category_slug":"bike_charger","form_slug":"first-form"},{"lat":"41.524464","lng":"1.752732","name":"Som Mobilitat - Piera","slug":"som-mobilitat-piera","address":null,"goalProgress":5,"active":false,"category_slug":"bike_charger","form_slug":null},{"lat":"41.581750","lng":"2.550889","name":"Som Mobilitat - Arenys de Mar","slug":"som-mobilitat-arenys-de-mar","address":null,"goalProgress":53,"active":false,"category_slug":"van","form_slug":"first-form"},{"lat":"41.145790","lng":"1.400605","name":"Som Mobilitat - Torredembarra","slug":"som-mobilitat-torredembarra","address":null,"goalProgress":70,"active":false,"category_slug":"car","form_slug":"first-form"},{"lat":"41.684298","lng":"2.283208","name":"Som Mobilitat - La Garriga","slug":"som-mobilitat-la-garriga","address":null,"goalProgress":74,"active":false,"category_slug":"car","form_slug":"bike_charger"},{"lat":"42.101983","lng":"1.844041","name":"Som Mobilitat - Berga","slug":"som-mobilitat-berga","address":null,"goalProgress":47,"active":false,"category_slug":"car","form_slug":"bike_charger"},{"lat":"41.618667","lng":"2.278187","name":"Som Mobilitat - Canovelles","slug":"som-mobilitat-canovelles","address":null,"goalProgress":41,"active":false,"category_slug":"car","form_slug":"bike_charger"},{"lat":"41.546928","lng":"2.267630","name":"Som Mobilitat - Montornès del Vallès","slug":"som-mobilitat-montornes-del-valles","address":null,"goalProgress":88,"active":false,"category_slug":"bike_charger","form_slug":"first-form"},{"lat":"41.645511","lng":"1.136263","name":"Som Mobilitat - Tàrrega","slug":"som-mobilitat-tarrega","address":null,"goalProgress":2,"active":false,"category_slug":"bike_charger","form_slug":"first-form"},{"lat":"41.697958","lng":"2.717957","name":"Som Mobilitat - Tordera","slug":"som-mobilitat-tordera","address":null,"goalProgress":76,"active":false,"category_slug":"car_charger","form_slug":"bike_charger"},{"lat":"41.792834","lng":"0.805909","name":"Som Mobilitat - Balaguer","slug":"som-mobilitat-balaguer","address":null,"goalProgress":20,"active":false,"category_slug":"car_charger","form_slug":"first-form"},{"lat":"41.630097","lng":"2.165863","name":"Som Mobilitat - Caldes de Montbui","slug":"som-mobilitat-caldes-de-montbui","address":null,"goalProgress":53,"active":false,"category_slug":"bike_charger","form_slug":null},{"lat":"41.385010","lng":"2.066708","name":"Som Mobilitat - Sant Just Desvern","slug":"som-mobilitat-sant-just-desvern","address":null,"goalProgress":46,"active":false,"category_slug":"car","form_slug":null},{"lat":"41.690683","lng":"2.489208","name":"Som Mobilitat - Sant Celoni","slug":"som-mobilitat-sant-celoni","address":null,"goalProgress":4,"active":false,"category_slug":"car_charger","form_slug":null},{"lat":"41.852097","lng":"3.129656","name":"Som Mobilitat - Palamós","slug":"som-mobilitat-palamos","address":null,"goalProgress":53,"active":false,"category_slug":"car_charger","form_slug":"bike_charger"},{"lat":"41.63756767661723","lng":"2.3536609243866717","name":"Cardedeu - Marià Borrell","slug":"som-mobilitat-cardedeu","address":"Carrer Marià Borrell 14 (davant de Can Xicola)","goalProgress":63,"active":true,"category_slug":"car_charger","form_slug":null},{"lat":"41.647381","lng":"2.743985","name":"Som Mobilitat - Malgrat de Mar","slug":"som-mobilitat-malgrat-de-mar","address":null,"goalProgress":63,"active":false,"category_slug":"car_charger","form_slug":null},{"lat":"41.615345","lng":"2.653595","name":"Som Mobilitat - Calella","slug":"som-mobilitat-calella","address":null,"goalProgress":66,"active":false,"category_slug":"car_charger","form_slug":"first-form"},{"lat":"41.553200","lng":"2.247625","name":"Som Mobilitat - Montmeló","slug":"som-mobilitat-montmelo","address":null,"goalProgress":34,"active":false,"category_slug":"bike_charger","form_slug":null},{"lat":"41.565731","lng":"2.229169","name":"Som Mobilitat - Parets del Vallès","slug":"som-mobilitat-parets-del-valles","address":null,"goalProgress":85,"active":false,"category_slug":"bike_charger","form_slug":"first-form"},{"lat":"42.266781","lng":"3.178431","name":"Som Mobilitat - Roses","slug":"som-mobilitat-roses","address":null,"goalProgress":82,"active":false,"category_slug":"car","form_slug":"first-form"},{"lat":"42.120192","lng":"2.765163","name":"Som Mobilitat - Banyoles","slug":"som-mobilitat-banyoles","address":null,"goalProgress":68,"active":false,"category_slug":"car_charger","form_slug":"first-form"},{"lat":"41.632257","lng":"2.298073","name":"Som Mobilitat - Les Franqueses del Vallès","slug":"som-mobilitat-les-franqueses-del-valles","address":null,"goalProgress":1,"active":false,"category_slug":"bike_charger","form_slug":"bike_charger"},{"lat":"41.537232","lng":"2.077420","name":"Som Mobilitat - Sant Quirze del Vallès","slug":"som-mobilitat-sant-quirze-del-valles","address":"Plaça de la Vila Sant Quirze del Vallès","goalProgress":30,"active":false,"category_slug":"car","form_slug":"first-form"},{"lat":"40.994791","lng":"0.920856","name":"Som Mobilitat - L'Hospitalet de L'infant","slug":"som-mobilitat-lhospitalet-de-linfant","address":null,"goalProgress":49,"active":false,"category_slug":"bike_charger","form_slug":"first-form"},{"lat":"41.228942","lng":"0.538537","name":"Som Mobilitat - Flix","slug":"som-mobilitat-flix","address":null,"goalProgress":42,"active":false,"category_slug":"car","form_slug":null},{"lat":"41.181326","lng":"0.567951","name":"Som Mobilitat - Ascó","slug":"som-mobilitat-asco","address":null,"goalProgress":13,"active":false,"category_slug":"car_charger","form_slug":null},{"lat":"42.167014","lng":"0.891207","name":"Som Mobilitat - Tremp","slug":"som-mobilitat-tremp","address":null,"goalProgress":9,"active":false,"category_slug":"bike_charger","form_slug":"first-form"},{"lat":"42.411650","lng":"1.130164","name":"Som Mobilitat - Sort","slug":"som-mobilitat-sort","address":null,"goalProgress":7,"active":false,"category_slug":"van","form_slug":"first-form"},{"lat":"42.702294","lng":"0.793881","name":"Som Mobilitat - Vielha","slug":"som-mobilitat-vielha","address":null,"goalProgress":23,"active":false,"category_slug":"bike_charger","form_slug":null},{"lat":"41.914165","lng":"1.184675","name":"Som Mobilitat - Ponts","slug":"som-mobilitat-ponts","address":null,"goalProgress":77,"active":false,"category_slug":"car","form_slug":null},{"lat":"41.051990","lng":"0.439468","name":"Som Mobilitat - Gandesa","slug":"som-mobilitat-gandesa","address":null,"goalProgress":49,"active":false,"category_slug":"van","form_slug":null},{"lat":"41.594435","lng":"2.407940","name":"Som Mobilitat - Dosrius","slug":"som-mobilitat-dosrius","address":null,"goalProgress":81,"active":false,"category_slug":"car_charger","form_slug":"first-form"},{"lat":"41.555464","lng":"2.354938","name":"Som Mobilitat - Òrrius","slug":"som-mobilitat-orrius","address":null,"goalProgress":11,"active":false,"category_slug":"van","form_slug":"bike_charger"},{"lat":"41.994486","lng":"1.518395","name":"Som Mobilitat - Solsona","slug":"som-mobilitat-solsona","address":null,"goalProgress":2,"active":false,"category_slug":"van","form_slug":"first-form"},{"lat":"41.915088","lng":"1.683550","name":"Som Mobilitat - Cardona","slug":"som-mobilitat-cardona","address":null,"goalProgress":46,"active":false,"category_slug":"car","form_slug":"bike_charger"},{"lat":"42.406817","lng":"0.741779","name":"Som Mobilitat - El Pont de Suert","slug":"som-mobilitat-el-pont-de-suert","address":null,"goalProgress":11,"active":false,"category_slug":"van","form_slug":"bike_charger"},{"lat":"41.731118","lng":"1.515717","name":"Som Mobilitat - Calaf","slug":"som-mobilitat-calaf","address":null,"goalProgress":4,"active":false,"category_slug":"van","form_slug":"bike_charger"},{"lat":"41.783699","lng":"1.290543","name":"Som Mobilitat - Guisona","slug":"som-mobilitat-guisona","address":null,"goalProgress":18,"active":false,"category_slug":"car_charger","form_slug":"bike_charger"},{"lat":"41.672795","lng":"1.275272","name":"Som Mobilitat - Cervera","slug":"som-mobilitat-cervera","address":null,"goalProgress":70,"active":false,"category_slug":"car","form_slug":null},{"lat":"41.374142","lng":"1.161940","name":"Som Mobilitat - Montblanc","slug":"som-mobilitat-montblanc","address":null,"goalProgress":41,"active":false,"category_slug":"van","form_slug":"bike_charger"},{"lat":"41.146324","lng":"0.820560","name":"Som Mobilitat - Falset","slug":"som-mobilitat-falset","address":null,"goalProgress":61,"active":false,"category_slug":"car","form_slug":null},{"lat":"41.520876","lng":"0.878992","name":"Som Mobilitat - Les Borges Blanques","slug":"som-mobilitat-les-borges-blanques","address":null,"goalProgress":30,"active":false,"category_slug":"car_charger","form_slug":"bike_charger"},{"lat":"41.088478","lng":"0.641571","name":"Som Mobilitat - Móra d'Ebre","slug":"som-mobilitat-mora-debre","address":null,"goalProgress":48,"active":false,"category_slug":"car","form_slug":"first-form"},{"lat":"41.4072693","lng":"2.2179026","name":"BSM-Bus Garcia Fària","slug":"bsm-bus-garcia-faria","address":"C/ Josep Pla, 14","goalProgress":47,"active":true,"category_slug":"van","form_slug":"bike_charger"},{"lat":"41.4098885","lng":"2.1740515","name":"BSM-Avinguda Gaudí","slug":"bsm-avinguda-gaudi","address":"C/ Castillejos, 328","goalProgress":58,"active":true,"category_slug":"car","form_slug":null},{"lat":"41.3866681","lng":"2.197179","name":"BSM-Marina Port","slug":"bsm-marina-port","address":"C/ de la Marina, 13-17","goalProgress":59,"active":true,"category_slug":"bike_charger","form_slug":"bike_charger"},{"lat":"41.3745133","lng":"2.1601114","name":"BSM-Plaça Navas","slug":"bsm-placa-navas","address":"C/ Jaume Fabra, 7","goalProgress":57,"active":true,"category_slug":"car","form_slug":"bike_charger"},{"lat":"41.430717385654184","lng":"2.188899447398423","name":"Barcelona - BSM Sant Andreu Teatre","slug":"bsm-sant-andreu-teatre","address":"Carrer de les Monges 6","goalProgress":0,"active":true,"category_slug":"van","form_slug":"bike_charger"},{"lat":"41.3730391","lng":"2.1548202","name":"BSM-Rius i Taulet","slug":"bsm-rius-i-taulet","address":"AV. Rius i Taulet, 2","goalProgress":89,"active":true,"category_slug":"bike_charger","form_slug":null},{"lat":"41.3879769","lng":"2.1971482","name":"BSM-Litoral Port","slug":"bsm-litoral-port","address":"Avda. Litoral, 34","goalProgress":66,"active":true,"category_slug":"bike_charger","form_slug":"first-form"},{"lat":"41.4015555","lng":"2.1570204","name":"Barcelona - Plaça del Sol","slug":"barcelona-placa-del-sol","address":"Pl- del Sol, 5","goalProgress":94,"active":false,"category_slug":"van","form_slug":null},{"lat":"41.4095981","lng":"2.1547531","name":"BSM-Travessera de Dalt","slug":"bsm-travessera-de-dalt","address":"Travessera de Dalt, 51","goalProgress":43,"active":true,"category_slug":"car","form_slug":null},{"lat":"41.4157487","lng":"2.1807051","name":"BSM-Passeig Maragall","slug":"bsm-passeig-maragall","address":"Pg. Maragall, 54","goalProgress":20,"active":true,"category_slug":"car","form_slug":null},{"lat":"41.3853788","lng":"2.1940517","name":"BSM-P.R. Biomèdica","slug":"bsm-p-r-biomedica","address":"C/ Aiguader, 88","goalProgress":8,"active":true,"category_slug":"van","form_slug":"bike_charger"},{"lat":"41.40906399230503","lng":"2.1661983874686688","name":"Barcelona - BSM Marina Gràcia","slug":"bsm-marina-gracia","address":"Carrer de la Marina 345","goalProgress":9,"active":true,"category_slug":"car","form_slug":null},{"lat":"41.394577","lng":"2.114208","name":"BSM-Marquès de Mulhacén","slug":"bsm-marques-de-mulhacen","address":"C/ Marqués de Mulhacen, 53","goalProgress":56,"active":true,"category_slug":"bike_charger","form_slug":"first-form"},{"lat":"41.4002889","lng":"2.1847012","name":"BSM-Plaça de les Arts","slug":"bsm-placa-de-les-arts","address":"Carrer de Padilla 148 (cantonada c. de Ribes)","goalProgress":51,"active":true,"category_slug":"car_charger","form_slug":"first-form"},{"lat":"41.399983","lng":"2.123368","name":"BSM-Porta de Sarrià","slug":"bsm-porta-de-sarria","address":"C/ Salvador Mundí, 17","goalProgress":22,"active":true,"category_slug":"car_charger","form_slug":null},{"lat":"41.382216","lng":"2.169744","name":"BSM-La Boqueria","slug":"bsm-la-boqueria","address":"C/ Floristes de la rambla - C/ del carme","goalProgress":50,"active":true,"category_slug":"van","form_slug":"bike_charger"},{"lat":"41.3786973","lng":"2.1799207","name":"BSM-.Moll de la Fusta","slug":"bsm-moll-de-la-fusta","address":"Pg Colom, (davant núm. 27)","goalProgress":93,"active":true,"category_slug":"van","form_slug":"bike_charger"},{"lat":"41.406819","lng":"2.133282","name":"BSM-Plaça Bonanova","slug":"bsm-placa-bonanova","address":"Pl. de la Bonanova, 12","goalProgress":23,"active":true,"category_slug":"van","form_slug":null},{"lat":"41.372221","lng":"2.156901","name":"BSM-Ciutat del Teatre","slug":"bsm-ciutat-del-teatre","address":"C/ de la França Xica, 35","goalProgress":94,"active":true,"category_slug":"van","form_slug":"first-form"},{"lat":"41.404583","lng":"2.1896753","name":"BSM-Ona Glòries","slug":"bsm-ona-glories","address":"C/ de la Ciutat de Granada, 171","goalProgress":67,"active":true,"category_slug":"van","form_slug":null},{"lat":"41.419408","lng":"2.179286","name":"BSM-Mercat del Guinardó","slug":"bsm-mercat-del-guinardo","address":"C/ Teodor Llorente, 28-30","goalProgress":90,"active":true,"category_slug":"car_charger","form_slug":"bike_charger"},{"lat":"41.37871588292609","lng":"2.1624456549482813","name":"Barcelona - BSM Mercat de Sant Antoni","slug":"bsm-mercat-de-sant-antoni","address":"Carrer del Compte d'Urgell 1","goalProgress":53,"active":true,"category_slug":"van","form_slug":"bike_charger"},{"lat":"41.555610","lng":"2.400561","name":"Ajuntament Argentona","slug":"ajuntament-argentona","address":"Carrer Gran, 59-69","goalProgress":93,"active":false,"category_slug":"bike_charger","form_slug":"bike_charger"},{"lat":"41.493188","lng":"2.295449","name":"Alella - Hort Rectoria","slug":"alella-hort-rectoria","address":"Rambla d'Àngel Guimerà, 8, Alella","goalProgress":66,"active":false,"category_slug":"van","form_slug":"first-form"}]